[
  {
    "address": "Adrian Street, Somerville MA 02143",
    "street": "Adrian Street",
    "school": "ARGENZIANO",
    "lat": 42.377331,
    "lon": -71.09872,
    "walk_mi": 0.19,
    "walk_min": 3.7,
    "walk_min_adj": 5
  },
  {
    "address": "Aldersey Street, Somerville MA 02143",
    "street": "Aldersey Street",
    "school": "ARGENZIANO",
    "lat": 42.383201,
    "lon": -71.096672,
    "walk_mi": 0.53,
    "walk_min": 10.2,
    "walk_min_adj": 12
  },
  {
    "address": "Allen Court, Somerville MA 02143",
    "street": "Allen Court",
    "school": "ARGENZIANO",
    "lat": 42.382123,
    "lon": -71.107091,
    "walk_mi": 0.69,
    "walk_min": 13.3,
    "walk_min_adj": 16
  },
  {
    "address": "Allen Street, Somerville MA 02143",
    "street": "Allen Street",
    "school": "ARGENZIANO",
    "lat": 42.377801,
    "lon": -71.093194,
    "walk_mi": 0.47,
    "walk_min": 9.0,
    "walk_min_adj": 11
  },
  {
    "address": "Arnold Court, Somerville MA 02143",
    "street": "Arnold Court",
    "school": "ARGENZIANO",
    "lat": 42.380042,
    "lon": -71.108217,
    "walk_mi": 0.57,
    "walk_min": 11.1,
    "walk_min_adj": 13
  },
  {
    "address": "Avon Street, Somerville MA 02143",
    "street": "Avon Street",
    "school": "ARGENZIANO",
    "lat": 42.385823,
    "lon": -71.102556,
    "walk_mi": 0.79,
    "walk_min": 15.3,
    "walk_min_adj": 18
  },
  {
    "address": "Beacon Place, Somerville MA 02143",
    "street": "Beacon Place",
    "school": "ARGENZIANO",
    "lat": 42.377638,
    "lon": -71.10509,
    "walk_mi": 0.46,
    "walk_min": 8.9,
    "walk_min_adj": 11
  },
  {
    "address": "Beacon Street 1-235, Somerville MA 02143",
    "street": "Beacon Street 1-235",
    "school": "ARGENZIANO",
    "lat": 42.379419,
    "lon": -71.081588,
    "walk_mi": 1.1,
    "walk_min": 21.3,
    "walk_min_adj": 25
  },
  {
    "address": "Bedford Street, Somerville MA 02143",
    "street": "Bedford Street",
    "school": "ARGENZIANO",
    "lat": 42.373721,
    "lon": -71.088615,
    "walk_mi": 0.8,
    "walk_min": 15.5,
    "walk_min_adj": 18
  },
  {
    "address": "Beech Street, Somerville MA 02143",
    "street": "Beech Street",
    "school": "ARGENZIANO",
    "lat": 42.383815,
    "lon": -71.107855,
    "walk_mi": 0.8,
    "walk_min": 15.5,
    "walk_min_adj": 18
  },
  {
    "address": "Berkeley Street, Somerville MA 02143",
    "street": "Berkeley Street",
    "school": "ARGENZIANO",
    "lat": 42.386708,
    "lon": -71.103007,
    "walk_mi": 0.89,
    "walk_min": 17.3,
    "walk_min_adj": 20
  },
  {
    "address": "Bigelow Street, Somerville MA 02143",
    "street": "Bigelow Street",
    "school": "ARGENZIANO",
    "lat": 42.382493,
    "lon": -71.093704,
    "walk_mi": 0.51,
    "walk_min": 9.9,
    "walk_min_adj": 12
  },
  {
    "address": "Bolton Street, Somerville MA 02143",
    "street": "Bolton Street",
    "school": "ARGENZIANO",
    "lat": 42.375701,
    "lon": -71.097696,
    "walk_mi": 0.42,
    "walk_min": 8.2,
    "walk_min_adj": 10
  },
  {
    "address": "Bonner Avenue, Somerville MA 02143",
    "street": "Bonner Avenue",
    "school": "ARGENZIANO",
    "lat": 42.379851,
    "lon": -71.093894,
    "walk_mi": 0.38,
    "walk_min": 7.3,
    "walk_min_adj": 9
  },
  {
    "address": "Boston Street, Somerville MA 02143",
    "street": "Boston Street",
    "school": "ARGENZIANO",
    "lat": 42.381247,
    "lon": -71.091085,
    "walk_mi": 0.61,
    "walk_min": 11.8,
    "walk_min_adj": 14
  },
  {
    "address": "Bow Street, Somerville MA 02143",
    "street": "Bow Street",
    "school": "ARGENZIANO",
    "lat": 42.381605,
    "lon": -71.09767,
    "walk_mi": 0.41,
    "walk_min": 7.9,
    "walk_min_adj": 9
  },
  {
    "address": "Bow Street Place, Somerville MA 02143",
    "street": "Bow Street Place",
    "school": "ARGENZIANO",
    "lat": 42.381863,
    "lon": -71.099161,
    "walk_mi": 0.41,
    "walk_min": 7.8,
    "walk_min_adj": 9
  },
  {
    "address": "Bowdoin Street, Somerville MA 02143",
    "street": "Bowdoin Street",
    "school": "ARGENZIANO",
    "lat": 42.378576,
    "lon": -71.100838,
    "walk_mi": 0.14,
    "walk_min": 2.7,
    "walk_min_adj": 4
  },
  {
    "address": "Buckingham Street, Somerville MA 02143",
    "street": "Buckingham Street",
    "school": "ARGENZIANO",
    "lat": 42.376183,
    "lon": -71.103635,
    "walk_mi": 0.43,
    "walk_min": 8.3,
    "walk_min_adj": 10
  },
  {
    "address": "Caldwell Avenue, Somerville MA 02143",
    "street": "Caldwell Avenue",
    "school": "ARGENZIANO",
    "lat": 42.378229,
    "lon": -71.105068,
    "walk_mi": 0.37,
    "walk_min": 7.2,
    "walk_min_adj": 9
  },
  {
    "address": "Calvin Street, Somerville MA 02143",
    "street": "Calvin Street",
    "school": "ARGENZIANO",
    "lat": 42.378258,
    "lon": -71.104123,
    "walk_mi": 0.33,
    "walk_min": 6.4,
    "walk_min_adj": 8
  },
  {
    "address": "Carlton Street, Somerville MA 02143",
    "street": "Carlton Street",
    "school": "ARGENZIANO",
    "lat": 42.380618,
    "lon": -71.100167,
    "walk_mi": 0.32,
    "walk_min": 6.2,
    "walk_min_adj": 8
  },
  {
    "address": "Carter Terrace, Somerville MA 02143",
    "street": "Carter Terrace",
    "school": "ARGENZIANO",
    "lat": 42.385529,
    "lon": -71.10447,
    "walk_mi": 0.84,
    "walk_min": 16.3,
    "walk_min_adj": 19
  },
  {
    "address": "Charlestown Street, Somerville MA 02143",
    "street": "Charlestown Street",
    "school": "ARGENZIANO",
    "lat": 42.376793,
    "lon": -71.091616,
    "walk_mi": 0.58,
    "walk_min": 11.3,
    "walk_min_adj": 13
  },
  {
    "address": "Church Street, Somerville MA 02143",
    "street": "Church Street",
    "school": "ARGENZIANO",
    "lat": 42.382696,
    "lon": -71.099729,
    "walk_mi": 0.47,
    "walk_min": 9.1,
    "walk_min_adj": 11
  },
  {
    "address": "Clark Street, Somerville MA 02143",
    "street": "Clark Street",
    "school": "ARGENZIANO",
    "lat": 42.378134,
    "lon": -71.09744,
    "walk_mi": 0.12,
    "walk_min": 2.4,
    "walk_min_adj": 3
  },
  {
    "address": "Cleveland Street, Somerville MA 02143",
    "street": "Cleveland Street",
    "school": "ARGENZIANO",
    "lat": 42.385047,
    "lon": -71.106822,
    "walk_mi": 0.89,
    "walk_min": 17.1,
    "walk_min_adj": 20
  },
  {
    "address": "Columbus Avenue, Somerville MA 02143",
    "street": "Columbus Avenue",
    "school": "ARGENZIANO",
    "lat": 42.382044,
    "lon": -71.095473,
    "walk_mi": 0.45,
    "walk_min": 8.7,
    "walk_min_adj": 10
  },
  {
    "address": "Concord Avenue, Somerville MA 02143",
    "street": "Concord Avenue",
    "school": "ARGENZIANO",
    "lat": 42.375365,
    "lon": -71.102139,
    "walk_mi": 0.37,
    "walk_min": 7.2,
    "walk_min_adj": 9
  },
  {
    "address": "Cooney Street, Somerville MA 02143",
    "street": "Cooney Street",
    "school": "ARGENZIANO",
    "lat": 42.37599,
    "lon": -71.104243,
    "walk_mi": 0.46,
    "walk_min": 8.9,
    "walk_min_adj": 11
  },
  {
    "address": "Cypress Street, Somerville MA 02143",
    "street": "Cypress Street",
    "school": "ARGENZIANO",
    "lat": 42.383871,
    "lon": -71.107199,
    "walk_mi": 0.78,
    "walk_min": 15.1,
    "walk_min_adj": 18
  },
  {
    "address": "Dane Avenue, Somerville MA 02143",
    "street": "Dane Avenue",
    "school": "ARGENZIANO",
    "lat": 42.380397,
    "lon": -71.104362,
    "walk_mi": 0.4,
    "walk_min": 7.8,
    "walk_min_adj": 9
  },
  {
    "address": "Dane Street, Somerville MA 02143",
    "street": "Dane Street",
    "school": "ARGENZIANO",
    "lat": 42.380691,
    "lon": -71.104464,
    "walk_mi": 0.42,
    "walk_min": 8.2,
    "walk_min_adj": 10
  },
  {
    "address": "Dickinson Street, Somerville MA 02143",
    "street": "Dickinson Street",
    "school": "ARGENZIANO",
    "lat": 42.374662,
    "lon": -71.101024,
    "walk_mi": 0.41,
    "walk_min": 7.9,
    "walk_min_adj": 9
  },
  {
    "address": "Dimick Street, Somerville MA 02143",
    "street": "Dimick Street",
    "school": "ARGENZIANO",
    "lat": 42.375996,
    "lon": -71.101878,
    "walk_mi": 0.35,
    "walk_min": 6.7,
    "walk_min_adj": 8
  },
  {
    "address": "Durham Street, Somerville MA 02143",
    "street": "Durham Street",
    "school": "ARGENZIANO",
    "lat": 42.379223,
    "lon": -71.105982,
    "walk_mi": 0.44,
    "walk_min": 8.5,
    "walk_min_adj": 10
  },
  {
    "address": "Eliot Street, Somerville MA 02143",
    "street": "Eliot Street",
    "school": "ARGENZIANO",
    "lat": 42.380651,
    "lon": -71.107241,
    "walk_mi": 0.56,
    "walk_min": 10.9,
    "walk_min_adj": 13
  },
  {
    "address": "Emerson Street, Somerville MA 02143",
    "street": "Emerson Street",
    "school": "ARGENZIANO",
    "lat": 42.378536,
    "lon": -71.095314,
    "walk_mi": 0.29,
    "walk_min": 5.6,
    "walk_min_adj": 7
  },
  {
    "address": "Everett Street, Somerville MA 02143",
    "street": "Everett Street",
    "school": "ARGENZIANO",
    "lat": 42.37875,
    "lon": -71.095748,
    "walk_mi": 0.3,
    "walk_min": 5.7,
    "walk_min_adj": 7
  },
  {
    "address": "Fitchburg Street, Somerville MA 02143",
    "street": "Fitchburg Street",
    "school": "ARGENZIANO",
    "lat": 42.375545,
    "lon": -71.085485,
    "walk_mi": 0.89,
    "walk_min": 17.2,
    "walk_min_adj": 20
  },
  {
    "address": "Fremont Avenue, Somerville MA 02143",
    "street": "Fremont Avenue",
    "school": "ARGENZIANO",
    "lat": 42.378679,
    "lon": -71.100075,
    "walk_mi": 0.13,
    "walk_min": 2.6,
    "walk_min_adj": 3
  },
  {
    "address": "Giles Park, Somerville MA 02143",
    "street": "Giles Park",
    "school": "ARGENZIANO",
    "lat": 42.381739,
    "lon": -71.096911,
    "walk_mi": 0.39,
    "walk_min": 7.6,
    "walk_min_adj": 9
  },
  {
    "address": "Grand View Avenue, Somerville MA 02143",
    "street": "Grand View Avenue",
    "school": "ARGENZIANO",
    "lat": 42.38497,
    "lon": -71.095542,
    "walk_mi": 0.67,
    "walk_min": 12.9,
    "walk_min_adj": 15
  },
  {
    "address": "Granite Street, Somerville MA 02143",
    "street": "Granite Street",
    "school": "ARGENZIANO",
    "lat": 42.382714,
    "lon": -71.103241,
    "walk_mi": 0.56,
    "walk_min": 10.8,
    "walk_min_adj": 13
  },
  {
    "address": "Greene Street, Somerville MA 02143",
    "street": "Greene Street",
    "school": "ARGENZIANO",
    "lat": 42.384592,
    "lon": -71.103895,
    "walk_mi": 0.78,
    "walk_min": 15.0,
    "walk_min_adj": 17
  },
  {
    "address": "Greenville Court, Somerville MA 02143",
    "street": "Greenville Court",
    "school": "ARGENZIANO",
    "lat": 42.383222,
    "lon": -71.092163,
    "walk_mi": 0.59,
    "walk_min": 11.5,
    "walk_min_adj": 13
  },
  {
    "address": "Greenville Street, Somerville MA 02143",
    "street": "Greenville Street",
    "school": "ARGENZIANO",
    "lat": 42.383197,
    "lon": -71.091762,
    "walk_mi": 0.61,
    "walk_min": 11.7,
    "walk_min_adj": 14
  },
  {
    "address": "Greenville Terrace, Somerville MA 02143",
    "street": "Greenville Terrace",
    "school": "ARGENZIANO",
    "lat": 42.383127,
    "lon": -71.092307,
    "walk_mi": 0.59,
    "walk_min": 11.4,
    "walk_min_adj": 13
  },
  {
    "address": "Hamlet Street, Somerville MA 02143",
    "street": "Hamlet Street",
    "school": "ARGENZIANO",
    "lat": 42.383942,
    "lon": -71.093039,
    "walk_mi": 0.63,
    "walk_min": 12.2,
    "walk_min_adj": 14
  },
  {
    "address": "Hammond Street, Somerville MA 02143",
    "street": "Hammond Street",
    "school": "ARGENZIANO",
    "lat": 42.375114,
    "lon": -71.101124,
    "walk_mi": 0.38,
    "walk_min": 7.4,
    "walk_min_adj": 9
  },
  {
    "address": "Hanson Avenue, Somerville MA 02143",
    "street": "Hanson Avenue",
    "school": "ARGENZIANO",
    "lat": 42.379365,
    "lon": -71.105231,
    "walk_mi": 0.43,
    "walk_min": 8.2,
    "walk_min_adj": 10
  },
  {
    "address": "Hanson Street, Somerville MA 02143",
    "street": "Hanson Street",
    "school": "ARGENZIANO",
    "lat": 42.379578,
    "lon": -71.105634,
    "walk_mi": 0.43,
    "walk_min": 8.4,
    "walk_min_adj": 10
  },
  {
    "address": "Harding Street, Somerville MA 02143",
    "street": "Harding Street",
    "school": "ARGENZIANO",
    "lat": 42.373999,
    "lon": -71.090309,
    "walk_mi": 0.7,
    "walk_min": 13.6,
    "walk_min_adj": 16
  },
  {
    "address": "Harold Street, Somerville MA 02143",
    "street": "Harold Street",
    "school": "ARGENZIANO",
    "lat": 42.376557,
    "lon": -71.102199,
    "walk_mi": 0.31,
    "walk_min": 6.0,
    "walk_min_adj": 7
  },
  {
    "address": "Harrison Street, Somerville MA 02143",
    "street": "Harrison Street",
    "school": "ARGENZIANO",
    "lat": 42.381949,
    "lon": -71.109709,
    "walk_mi": 0.76,
    "walk_min": 14.7,
    "walk_min_adj": 17
  },
  {
    "address": "Hawkins Street, Somerville MA 02143",
    "street": "Hawkins Street",
    "school": "ARGENZIANO",
    "lat": 42.380244,
    "lon": -71.097932,
    "walk_mi": 0.2,
    "walk_min": 3.9,
    "walk_min_adj": 5
  },
  {
    "address": "Highland Avenue 6-146, Somerville MA 02143",
    "street": "Highland Avenue 6-146",
    "school": "ARGENZIANO",
    "lat": 42.3846,
    "lon": -71.09279,
    "walk_mi": 0.68,
    "walk_min": 13.2,
    "walk_min_adj": 15
  },
  {
    "address": "Hodgdon Place, Somerville MA 02143",
    "street": "Hodgdon Place",
    "school": "ARGENZIANO",
    "lat": 42.380536,
    "lon": -71.103992,
    "walk_mi": 0.39,
    "walk_min": 7.5,
    "walk_min_adj": 9
  },
  {
    "address": "Holden Green, Somerville MA 02143",
    "street": "Holden Green",
    "school": "ARGENZIANO",
    "lat": 42.378683,
    "lon": -71.108229,
    "walk_mi": 0.57,
    "walk_min": 11.1,
    "walk_min_adj": 13
  },
  {
    "address": "Holts Avenue, Somerville MA 02143",
    "street": "Holts Avenue",
    "school": "ARGENZIANO",
    "lat": 42.375401,
    "lon": -71.098728,
    "walk_mi": 0.5,
    "walk_min": 9.7,
    "walk_min_adj": 11
  },
  {
    "address": "Homer Square, Somerville MA 02143",
    "street": "Homer Square",
    "school": "ARGENZIANO",
    "lat": 42.380336,
    "lon": -71.094109,
    "walk_mi": 0.39,
    "walk_min": 7.6,
    "walk_min_adj": 9
  },
  {
    "address": "Horace Street, Somerville MA 02143",
    "street": "Horace Street",
    "school": "ARGENZIANO",
    "lat": 42.3746,
    "lon": -71.089506,
    "walk_mi": 0.74,
    "walk_min": 14.3,
    "walk_min_adj": 17
  },
  {
    "address": "Houghton Street, Somerville MA 02143",
    "street": "Houghton Street",
    "school": "ARGENZIANO",
    "lat": 42.374838,
    "lon": -71.098804,
    "walk_mi": 0.48,
    "walk_min": 9.3,
    "walk_min_adj": 11
  },
  {
    "address": "Hunting Street, Somerville MA 02143",
    "street": "Hunting Street",
    "school": "ARGENZIANO",
    "lat": 42.37434,
    "lon": -71.090775,
    "walk_mi": 0.66,
    "walk_min": 12.7,
    "walk_min_adj": 15
  },
  {
    "address": "Ivaloo Street, Somerville MA 02143",
    "street": "Ivaloo Street",
    "school": "ARGENZIANO",
    "lat": 42.381464,
    "lon": -71.108619,
    "walk_mi": 0.69,
    "walk_min": 13.4,
    "walk_min_adj": 16
  },
  {
    "address": "Joseph Street, Somerville MA 02143",
    "street": "Joseph Street",
    "school": "ARGENZIANO",
    "lat": 42.377419,
    "lon": -71.097532,
    "walk_mi": 0.18,
    "walk_min": 3.4,
    "walk_min_adj": 4
  },
  {
    "address": "Kilby Street, Somerville MA 02143",
    "street": "Kilby Street",
    "school": "ARGENZIANO",
    "lat": 42.380716,
    "lon": -71.099279,
    "walk_mi": 0.32,
    "walk_min": 6.1,
    "walk_min_adj": 7
  },
  {
    "address": "Kingman Road, Somerville MA 02143",
    "street": "Kingman Road",
    "school": "ARGENZIANO",
    "lat": 42.37911,
    "lon": -71.097176,
    "walk_mi": 0.2,
    "walk_min": 4.0,
    "walk_min_adj": 5
  },
  {
    "address": "Knapp Street, Somerville MA 02143",
    "street": "Knapp Street",
    "school": "ARGENZIANO",
    "lat": 42.38284,
    "lon": -71.102566,
    "walk_mi": 0.56,
    "walk_min": 10.8,
    "walk_min_adj": 13
  },
  {
    "address": "Lake Street, Somerville MA 02143",
    "street": "Lake Street",
    "school": "ARGENZIANO",
    "lat": 42.380033,
    "lon": -71.098376,
    "walk_mi": 0.2,
    "walk_min": 3.8,
    "walk_min_adj": 5
  },
  {
    "address": "Landers Street, Somerville MA 02143",
    "street": "Landers Street",
    "school": "ARGENZIANO",
    "lat": 42.383325,
    "lon": -71.101629,
    "walk_mi": 0.58,
    "walk_min": 11.2,
    "walk_min_adj": 13
  },
  {
    "address": "Laurel Avenue, Somerville MA 02143",
    "street": "Laurel Avenue",
    "school": "ARGENZIANO",
    "lat": 42.384081,
    "lon": -71.104976,
    "walk_mi": 0.74,
    "walk_min": 14.3,
    "walk_min_adj": 17
  },
  {
    "address": "Laurel Street, Somerville MA 02143",
    "street": "Laurel Street",
    "school": "ARGENZIANO",
    "lat": 42.385133,
    "lon": -71.103944,
    "walk_mi": 0.8,
    "walk_min": 15.4,
    "walk_min_adj": 18
  },
  {
    "address": "Laurel Terrace, Somerville MA 02143",
    "street": "Laurel Terrace",
    "school": "ARGENZIANO",
    "lat": 42.383926,
    "lon": -71.103626,
    "walk_mi": 0.68,
    "walk_min": 13.1,
    "walk_min_adj": 15
  },
  {
    "address": "Lawson Terrace, Somerville MA 02143",
    "street": "Lawson Terrace",
    "school": "ARGENZIANO",
    "lat": 42.384323,
    "lon": -71.097656,
    "walk_mi": 0.61,
    "walk_min": 11.7,
    "walk_min_adj": 14
  },
  {
    "address": "Leland Street, Somerville MA 02143",
    "street": "Leland Street",
    "school": "ARGENZIANO",
    "lat": 42.379411,
    "lon": -71.102707,
    "walk_mi": 0.25,
    "walk_min": 4.8,
    "walk_min_adj": 6
  },
  {
    "address": "Leon Street, Somerville MA 02143",
    "street": "Leon Street",
    "school": "ARGENZIANO",
    "lat": 42.375963,
    "lon": -71.101168,
    "walk_mi": 0.31,
    "walk_min": 5.9,
    "walk_min_adj": 7
  },
  {
    "address": "Lewis Street, Somerville MA 02143",
    "street": "Lewis Street",
    "school": "ARGENZIANO",
    "lat": 42.377793,
    "lon": -71.102025,
    "walk_mi": 0.29,
    "walk_min": 5.7,
    "walk_min_adj": 7
  },
  {
    "address": "Lincoln Parkway, Somerville MA 02143",
    "street": "Lincoln Parkway",
    "school": "ARGENZIANO",
    "lat": 42.377828,
    "lon": -71.099076,
    "walk_mi": 0.13,
    "walk_min": 2.6,
    "walk_min_adj": 3
  },
  {
    "address": "Linden Street, Somerville MA 02143",
    "street": "Linden Street",
    "school": "ARGENZIANO",
    "lat": 42.377669,
    "lon": -71.092571,
    "walk_mi": 0.49,
    "walk_min": 9.5,
    "walk_min_adj": 11
  },
  {
    "address": "Line Street, Somerville MA 02143",
    "street": "Line Street",
    "school": "ARGENZIANO",
    "lat": 42.374982,
    "lon": -71.103918,
    "walk_mi": 0.56,
    "walk_min": 10.7,
    "walk_min_adj": 13
  },
  {
    "address": "Loring Street, Somerville MA 02143",
    "street": "Loring Street",
    "school": "ARGENZIANO",
    "lat": 42.383132,
    "lon": -71.103842,
    "walk_mi": 0.61,
    "walk_min": 11.9,
    "walk_min_adj": 14
  },
  {
    "address": "Magnus Avenue, Somerville MA 02143",
    "street": "Magnus Avenue",
    "school": "ARGENZIANO",
    "lat": 42.377671,
    "lon": -71.103496,
    "walk_mi": 0.34,
    "walk_min": 6.7,
    "walk_min_adj": 8
  },
  {
    "address": "Mansfield Street, Somerville MA 02143",
    "street": "Mansfield Street",
    "school": "ARGENZIANO",
    "lat": 42.378805,
    "lon": -71.09041,
    "walk_mi": 0.62,
    "walk_min": 11.9,
    "walk_min_adj": 14
  },
  {
    "address": "Marion Street, Somerville MA 02143",
    "street": "Marion Street",
    "school": "ARGENZIANO",
    "lat": 42.377257,
    "lon": -71.103039,
    "walk_mi": 0.31,
    "walk_min": 5.9,
    "walk_min_adj": 7
  },
  {
    "address": "May Place, Somerville MA 02143",
    "street": "May Place",
    "school": "ARGENZIANO",
    "lat": 42.380196,
    "lon": -71.097744,
    "walk_mi": 0.2,
    "walk_min": 4.0,
    "walk_min_adj": 5
  },
  {
    "address": "McGrath Hwy 280-430 even, Somerville MA 02143",
    "street": "McGrath Hwy 280-430 even",
    "school": "ARGENZIANO",
    "lat": 42.38038,
    "lon": -71.09,
    "walk_mi": 0.59,
    "walk_min": 11.4,
    "walk_min_adj": 13
  },
  {
    "address": "Medford Street 8-252, Somerville MA 02143",
    "street": "Medford Street 8-252",
    "school": "ARGENZIANO",
    "lat": 42.37365,
    "lon": -71.08749,
    "walk_mi": 0.84,
    "walk_min": 16.2,
    "walk_min_adj": 19
  },
  {
    "address": "Merriam Street, Somerville MA 02143",
    "street": "Merriam Street",
    "school": "ARGENZIANO",
    "lat": 42.377595,
    "lon": -71.091694,
    "walk_mi": 0.52,
    "walk_min": 10.1,
    "walk_min_adj": 12
  },
  {
    "address": "Milk Place, Somerville MA 02143",
    "street": "Milk Place",
    "school": "ARGENZIANO",
    "lat": 42.378784,
    "lon": -71.093615,
    "walk_mi": 0.39,
    "walk_min": 7.4,
    "walk_min_adj": 9
  },
  {
    "address": "Mondamin Court, Somerville MA 02143",
    "street": "Mondamin Court",
    "school": "ARGENZIANO",
    "lat": 42.381782,
    "lon": -71.109518,
    "walk_mi": 0.74,
    "walk_min": 14.4,
    "walk_min_adj": 17
  },
  {
    "address": "Monmouth Street, Somerville MA 02143",
    "street": "Monmouth Street",
    "school": "ARGENZIANO",
    "lat": 42.385556,
    "lon": -71.10645,
    "walk_mi": 0.92,
    "walk_min": 17.8,
    "walk_min_adj": 21
  },
  {
    "address": "Morgan Street, Somerville MA 02143",
    "street": "Morgan Street",
    "school": "ARGENZIANO",
    "lat": 42.381009,
    "lon": -71.108285,
    "walk_mi": 0.64,
    "walk_min": 12.3,
    "walk_min_adj": 14
  },
  {
    "address": "Munroe Street, Somerville MA 02143",
    "street": "Munroe Street",
    "school": "ARGENZIANO",
    "lat": 42.382006,
    "lon": -71.093629,
    "walk_mi": 0.47,
    "walk_min": 9.1,
    "walk_min_adj": 11
  },
  {
    "address": "Nevada Avenue, Somerville MA 02143",
    "street": "Nevada Avenue",
    "school": "ARGENZIANO",
    "lat": 42.380382,
    "lon": -71.105386,
    "walk_mi": 0.45,
    "walk_min": 8.6,
    "walk_min_adj": 10
  },
  {
    "address": "Newton Place, Somerville MA 02143",
    "street": "Newton Place",
    "school": "ARGENZIANO",
    "lat": 42.377536,
    "lon": -71.095965,
    "walk_mi": 0.23,
    "walk_min": 4.4,
    "walk_min_adj": 5
  },
  {
    "address": "Newton Street, Somerville MA 02143",
    "street": "Newton Street",
    "school": "ARGENZIANO",
    "lat": 42.377595,
    "lon": -71.096298,
    "walk_mi": 0.2,
    "walk_min": 3.8,
    "walk_min_adj": 5
  },
  {
    "address": "Norfolk Street, Somerville MA 02143",
    "street": "Norfolk Street",
    "school": "ARGENZIANO",
    "lat": 42.374598,
    "lon": -71.095342,
    "walk_mi": 0.45,
    "walk_min": 8.8,
    "walk_min_adj": 10
  },
  {
    "address": "Oak Street, Somerville MA 02143",
    "street": "Oak Street",
    "school": "ARGENZIANO",
    "lat": 42.375851,
    "lon": -71.098754,
    "walk_mi": 0.47,
    "walk_min": 9.0,
    "walk_min_adj": 11
  },
  {
    "address": "Oak Street Place, Somerville MA 02143",
    "street": "Oak Street Place",
    "school": "ARGENZIANO",
    "lat": 42.376107,
    "lon": -71.097896,
    "walk_mi": 0.43,
    "walk_min": 8.3,
    "walk_min_adj": 10
  },
  {
    "address": "Oakland Street, Somerville MA 02143",
    "street": "Oakland Street",
    "school": "ARGENZIANO",
    "lat": 42.39175,
    "lon": -71.094437,
    "walk_mi": 1.21,
    "walk_min": 23.3,
    "walk_min_adj": 27
  },
  {
    "address": "Olive Square, Somerville MA 02143",
    "street": "Olive Square",
    "school": "ARGENZIANO",
    "lat": 42.379866,
    "lon": -71.098692,
    "walk_mi": 0.22,
    "walk_min": 4.3,
    "walk_min_adj": 5
  },
  {
    "address": "Osgood Street, Somerville MA 02143",
    "street": "Osgood Street",
    "school": "ARGENZIANO",
    "lat": 42.38372,
    "lon": -71.103027,
    "walk_mi": 0.64,
    "walk_min": 12.4,
    "walk_min_adj": 15
  },
  {
    "address": "Oxford Street 146-148, Somerville MA 02143",
    "street": "Oxford Street 146-148",
    "school": "ARGENZIANO",
    "lat": 42.38092,
    "lon": -71.098896,
    "walk_mi": 0.28,
    "walk_min": 5.5,
    "walk_min_adj": 7
  },
  {
    "address": "Park Place, Somerville MA 02143",
    "street": "Park Place",
    "school": "ARGENZIANO",
    "lat": 42.383397,
    "lon": -71.10427,
    "walk_mi": 0.73,
    "walk_min": 14.1,
    "walk_min_adj": 16
  },
  {
    "address": "Park Street, Somerville MA 02143",
    "street": "Park Street",
    "school": "ARGENZIANO",
    "lat": 42.380561,
    "lon": -71.108185,
    "walk_mi": 0.63,
    "walk_min": 12.2,
    "walk_min_adj": 14
  },
  {
    "address": "Parkdale Street, Somerville MA 02143",
    "street": "Parkdale Street",
    "school": "ARGENZIANO",
    "lat": 42.378429,
    "lon": -71.102167,
    "walk_mi": 0.24,
    "walk_min": 4.7,
    "walk_min_adj": 6
  },
  {
    "address": "Parker Street, Somerville MA 02143",
    "street": "Parker Street",
    "school": "ARGENZIANO",
    "lat": 42.379023,
    "lon": -71.100187,
    "walk_mi": 0.1,
    "walk_min": 2.0,
    "walk_min_adj": 3
  },
  {
    "address": "Perry Street, Somerville MA 02143",
    "street": "Perry Street",
    "school": "ARGENZIANO",
    "lat": 42.378598,
    "lon": -71.101485,
    "walk_mi": 0.2,
    "walk_min": 3.8,
    "walk_min_adj": 5
  },
  {
    "address": "Pitman Street 1-14, Somerville MA 02143",
    "street": "Pitman Street 1-14",
    "school": "ARGENZIANO",
    "lat": 42.38092,
    "lon": -71.098896,
    "walk_mi": 0.28,
    "walk_min": 5.5,
    "walk_min_adj": 7
  },
  {
    "address": "Pleasant Avenue, Somerville MA 02143",
    "street": "Pleasant Avenue",
    "school": "ARGENZIANO",
    "lat": 42.384471,
    "lon": -71.095936,
    "walk_mi": 0.63,
    "walk_min": 12.2,
    "walk_min_adj": 14
  },
  {
    "address": "Prescott Street, Somerville MA 02143",
    "street": "Prescott Street",
    "school": "ARGENZIANO",
    "lat": 42.385221,
    "lon": -71.098683,
    "walk_mi": 0.68,
    "walk_min": 13.1,
    "walk_min_adj": 15
  },
  {
    "address": "Preston Road, Somerville MA 02143",
    "street": "Preston Road",
    "school": "ARGENZIANO",
    "lat": 42.384271,
    "lon": -71.102277,
    "walk_mi": 0.68,
    "walk_min": 13.2,
    "walk_min_adj": 15
  },
  {
    "address": "Properzi Way, Somerville MA 02143",
    "street": "Properzi Way",
    "school": "ARGENZIANO",
    "lat": 42.37973,
    "lon": -71.107707,
    "walk_mi": 0.55,
    "walk_min": 10.6,
    "walk_min_adj": 12
  },
  {
    "address": "Prospect Hill Avenue, Somerville MA 02143",
    "street": "Prospect Hill Avenue",
    "school": "ARGENZIANO",
    "lat": 42.381812,
    "lon": -71.091017,
    "walk_mi": 0.6,
    "walk_min": 11.6,
    "walk_min_adj": 14
  },
  {
    "address": "Prospect Street, Somerville MA 02143",
    "street": "Prospect Street",
    "school": "ARGENZIANO",
    "lat": 42.374703,
    "lon": -71.097196,
    "walk_mi": 0.51,
    "walk_min": 9.8,
    "walk_min_adj": 12
  },
  {
    "address": "Putnam Street, Somerville MA 02143",
    "street": "Putnam Street",
    "school": "ARGENZIANO",
    "lat": 42.383617,
    "lon": -71.09864,
    "walk_mi": 0.55,
    "walk_min": 10.6,
    "walk_min_adj": 12
  },
  {
    "address": "Quincy Street, Somerville MA 02143",
    "street": "Quincy Street",
    "school": "ARGENZIANO",
    "lat": 42.383422,
    "lon": -71.100143,
    "walk_mi": 0.56,
    "walk_min": 10.7,
    "walk_min_adj": 13
  },
  {
    "address": "Rev Nazareno Properzi, Somerville MA 02143",
    "street": "Rev Nazareno Properzi",
    "school": "ARGENZIANO",
    "lat": 42.37973,
    "lon": -71.107707,
    "walk_mi": 0.55,
    "walk_min": 10.6,
    "walk_min_adj": 12
  },
  {
    "address": "Rose Street, Somerville MA 02143",
    "street": "Rose Street",
    "school": "ARGENZIANO",
    "lat": 42.378432,
    "lon": -71.102825,
    "walk_mi": 0.27,
    "walk_min": 5.2,
    "walk_min_adj": 6
  },
  {
    "address": "Rossmore Street, Somerville MA 02143",
    "street": "Rossmore Street",
    "school": "ARGENZIANO",
    "lat": 42.378536,
    "lon": -71.09115,
    "walk_mi": 0.56,
    "walk_min": 10.8,
    "walk_min_adj": 13
  },
  {
    "address": "Sanborn Avenue, Somerville MA 02143",
    "street": "Sanborn Avenue",
    "school": "ARGENZIANO",
    "lat": 42.381406,
    "lon": -71.096378,
    "walk_mi": 0.38,
    "walk_min": 7.4,
    "walk_min_adj": 9
  },
  {
    "address": "School Street 1-120, Somerville MA 02143",
    "street": "School Street 1-120",
    "school": "ARGENZIANO",
    "lat": 42.379419,
    "lon": -71.081588,
    "walk_mi": 1.1,
    "walk_min": 21.3,
    "walk_min_adj": 25
  },
  {
    "address": "Skehan Street, Somerville MA 02143",
    "street": "Skehan Street",
    "school": "ARGENZIANO",
    "lat": 42.379964,
    "lon": -71.105109,
    "walk_mi": 0.41,
    "walk_min": 8.0,
    "walk_min_adj": 10
  },
  {
    "address": "Smith Avenue, Somerville MA 02143",
    "street": "Smith Avenue",
    "school": "ARGENZIANO",
    "lat": 42.377062,
    "lon": -71.105567,
    "walk_mi": 0.47,
    "walk_min": 9.0,
    "walk_min_adj": 11
  },
  {
    "address": "Somerville Avenue 109-581, Somerville MA 02143",
    "street": "Somerville Avenue 109-581",
    "school": "ARGENZIANO",
    "lat": 42.38092,
    "lon": -71.098896,
    "walk_mi": 0.28,
    "walk_min": 5.5,
    "walk_min_adj": 7
  },
  {
    "address": "South Street, Somerville MA 02143",
    "street": "South Street",
    "school": "ARGENZIANO",
    "lat": 42.375,
    "lon": -71.092179,
    "walk_mi": 0.58,
    "walk_min": 11.1,
    "walk_min_adj": 13
  },
  {
    "address": "Springfield Street, Somerville MA 02143",
    "street": "Springfield Street",
    "school": "ARGENZIANO",
    "lat": 42.374186,
    "lon": -71.100412,
    "walk_mi": 0.49,
    "walk_min": 9.6,
    "walk_min_adj": 11
  },
  {
    "address": "Stone Avenue, Somerville MA 02143",
    "street": "Stone Avenue",
    "school": "ARGENZIANO",
    "lat": 42.379936,
    "lon": -71.095847,
    "walk_mi": 0.27,
    "walk_min": 5.3,
    "walk_min_adj": 6
  },
  {
    "address": "Stone Place, Somerville MA 02143",
    "street": "Stone Place",
    "school": "ARGENZIANO",
    "lat": 42.380333,
    "lon": -71.095076,
    "walk_mi": 0.33,
    "walk_min": 6.4,
    "walk_min_adj": 8
  },
  {
    "address": "Summer Street 1-170, Somerville MA 02143",
    "street": "Summer Street 1-170",
    "school": "ARGENZIANO",
    "lat": 42.379419,
    "lon": -71.081588,
    "walk_mi": 1.1,
    "walk_min": 21.3,
    "walk_min_adj": 25
  },
  {
    "address": "Summit Avenue, Somerville MA 02143",
    "street": "Summit Avenue",
    "school": "ARGENZIANO",
    "lat": 42.38399,
    "lon": -71.096327,
    "walk_mi": 0.59,
    "walk_min": 11.5,
    "walk_min_adj": 13
  },
  {
    "address": "Taunton Street, Somerville MA 02143",
    "street": "Taunton Street",
    "school": "ARGENZIANO",
    "lat": 42.37683,
    "lon": -71.100472,
    "walk_mi": 0.27,
    "walk_min": 5.3,
    "walk_min_adj": 6
  },
  {
    "address": "Thorpe Street, Somerville MA 02143",
    "street": "Thorpe Street",
    "school": "ARGENZIANO",
    "lat": 42.384302,
    "lon": -71.09387,
    "walk_mi": 0.72,
    "walk_min": 14.0,
    "walk_min_adj": 16
  },
  {
    "address": "Tower Court, Somerville MA 02143",
    "street": "Tower Court",
    "school": "ARGENZIANO",
    "lat": 42.38193,
    "lon": -71.104966,
    "walk_mi": 0.55,
    "walk_min": 10.7,
    "walk_min_adj": 13
  },
  {
    "address": "Tremont Place, Somerville MA 02143",
    "street": "Tremont Place",
    "school": "ARGENZIANO",
    "lat": 42.375071,
    "lon": -71.095684,
    "walk_mi": 0.42,
    "walk_min": 8.2,
    "walk_min_adj": 10
  },
  {
    "address": "Tremont Street, Somerville MA 02143",
    "street": "Tremont Street",
    "school": "ARGENZIANO",
    "lat": 42.375492,
    "lon": -71.095514,
    "walk_mi": 0.39,
    "walk_min": 7.5,
    "walk_min_adj": 9
  },
  {
    "address": "Tyler Street, Somerville MA 02143",
    "street": "Tyler Street",
    "school": "ARGENZIANO",
    "lat": 42.381768,
    "lon": -71.105321,
    "walk_mi": 0.55,
    "walk_min": 10.7,
    "walk_min_adj": 13
  },
  {
    "address": "Union Square, Somerville MA 02143",
    "street": "Union Square",
    "school": "ARGENZIANO",
    "lat": 42.37966,
    "lon": -71.096286,
    "walk_mi": 0.24,
    "walk_min": 4.6,
    "walk_min_adj": 6
  },
  {
    "address": "Village Street, Somerville MA 02143",
    "street": "Village Street",
    "school": "ARGENZIANO",
    "lat": 42.380466,
    "lon": -71.104754,
    "walk_mi": 0.41,
    "walk_min": 7.9,
    "walk_min_adj": 9
  },
  {
    "address": "Village Terrace, Somerville MA 02143",
    "street": "Village Terrace",
    "school": "ARGENZIANO",
    "lat": 42.380797,
    "lon": -71.105281,
    "walk_mi": 0.45,
    "walk_min": 8.6,
    "walk_min_adj": 10
  },
  {
    "address": "Vinal Avenue, Somerville MA 02143",
    "street": "Vinal Avenue",
    "school": "ARGENZIANO",
    "lat": 42.382892,
    "lon": -71.097939,
    "walk_mi": 0.49,
    "walk_min": 9.4,
    "walk_min_adj": 11
  },
  {
    "address": "Waldo Avenue, Somerville MA 02143",
    "street": "Waldo Avenue",
    "school": "ARGENZIANO",
    "lat": 42.376947,
    "lon": -71.103949,
    "walk_mi": 0.36,
    "walk_min": 7.0,
    "walk_min_adj": 8
  },
  {
    "address": "Ward Street, Somerville MA 02143",
    "street": "Ward Street",
    "school": "ARGENZIANO",
    "lat": 42.374892,
    "lon": -71.088903,
    "walk_mi": 0.79,
    "walk_min": 15.2,
    "walk_min_adj": 18
  },
  {
    "address": "Warren Avenue, Somerville MA 02143",
    "street": "Warren Avenue",
    "school": "ARGENZIANO",
    "lat": 42.380743,
    "lon": -71.096183,
    "walk_mi": 0.32,
    "walk_min": 6.1,
    "walk_min_adj": 7
  },
  {
    "address": "Warren Street, Somerville MA 02143",
    "street": "Warren Street",
    "school": "ARGENZIANO",
    "lat": 42.373581,
    "lon": -71.087869,
    "walk_mi": 0.84,
    "walk_min": 16.2,
    "walk_min_adj": 19
  },
  {
    "address": "Washington Street 150-End, Somerville MA 02143",
    "street": "Washington Street 150-End",
    "school": "ARGENZIANO",
    "lat": 42.37985,
    "lon": -71.09072,
    "walk_mi": 0.55,
    "walk_min": 10.7,
    "walk_min_adj": 13
  },
  {
    "address": "Washington Terrace, Somerville MA 02143",
    "street": "Washington Terrace",
    "school": "ARGENZIANO",
    "lat": 42.379612,
    "lon": -71.092202,
    "walk_mi": 0.46,
    "walk_min": 8.9,
    "walk_min_adj": 11
  },
  {
    "address": "Webster Avenue, Somerville MA 02143",
    "street": "Webster Avenue",
    "school": "ARGENZIANO",
    "lat": 42.379163,
    "lon": -71.09625,
    "walk_mi": 0.26,
    "walk_min": 4.9,
    "walk_min_adj": 6
  },
  {
    "address": "Wesley Park, Somerville MA 02143",
    "street": "Wesley Park",
    "school": "ARGENZIANO",
    "lat": 42.382001,
    "lon": -71.097578,
    "walk_mi": 0.41,
    "walk_min": 8.0,
    "walk_min_adj": 10
  },
  {
    "address": "Wyatt Circle, Somerville MA 02143",
    "street": "Wyatt Circle",
    "school": "ARGENZIANO",
    "lat": 42.376639,
    "lon": -71.101641,
    "walk_mi": 0.28,
    "walk_min": 5.4,
    "walk_min_adj": 7
  },
  {
    "address": "Wyatt Street, Somerville MA 02143",
    "street": "Wyatt Street",
    "school": "ARGENZIANO",
    "lat": 42.376529,
    "lon": -71.101113,
    "walk_mi": 0.26,
    "walk_min": 5.1,
    "walk_min_adj": 6
  }
]