address,street,endpoint,"Geocodio Latitude","Geocodio Longitude","Geocodio Accuracy Score","Geocodio Accuracy Type","Geocodio Address Line 1","Geocodio Address Line 2","Geocodio Address Line 3","Geocodio Address Line 4","Geocodio House Number","Geocodio Street","Geocodio Unit Type","Geocodio Unit Number","Geocodio City","Geocodio State / Province","Geocodio Nation","Geocodio County","Geocodio Postal Code","Geocodio Country","Geocodio Building Name","Geocodio Source","Geocodio Stable Address Key","Geocodio Match Type"
"128 Albion Court, Somerville MA 02145","Albion Court",start,42.392115,-71.109173,1,rooftop,"128 Albion Ct",,"Somerville, MA 02144",,128,"Albion Ct",,,Somerville,MA,,"Middlesex County",02144,US,,"Office of Geographic Information (MassGIS), Commonwealth of Massachusetts, MassIT",gcod_usnp85fusxqd98xhysh8hgyaaggf7,building_centroid
"134 Albion Court, Somerville MA 02145","Albion Court",end,42.392195,-71.109307,1,rooftop,"134 Albion Ct",,"Somerville, MA 02144",,134,"Albion Ct",,,Somerville,MA,,"Middlesex County",02144,US,,"Office of Geographic Information (MassGIS), Commonwealth of Massachusetts, MassIT",gcod_usnp85fusxqd98xhznzmgurvb3m9e,building_centroid
"8 Albion Place, Somerville MA 02145","Albion Place",start,42.392395,-71.108521,1,rooftop,"8 Albion Pl",,"Somerville, MA 02144",,8,"Albion Pl",,,Somerville,MA,,"Middlesex County",02144,US,,"Office of Geographic Information (MassGIS), Commonwealth of Massachusetts, MassIT",gcod_usnqz7qrabdb9secax7rcxzhvry36,building_centroid
"17 Albion Place, Somerville MA 02145","Albion Place",end,42.392401,-71.108203,1,rooftop,"17 Albion Pl",,"Somerville, MA 02144",,17,"Albion Pl",,,Somerville,MA,,"Middlesex County",02144,US,,"Office of Geographic Information (MassGIS), Commonwealth of Massachusetts, MassIT",gcod_usnqz7qrabdb9seclj24c53xzb8le,building_centroid
"94 Albion Street, Somerville MA 02145","Albion Street",start,42.391315,-71.107361,1,rooftop,"94 Albion St",,"Somerville, MA 02144",,94,"Albion St",,,Somerville,MA,,"Middlesex County",02144,US,,"Office of Geographic Information (MassGIS), Commonwealth of Massachusetts, MassIT",gcod_usnzejbfcn5cnpvhap8c39dmpczh8,building_centroid
"179 Albion Street, Somerville MA 02145","Albion Street",end,42.393312,-71.111405,1,rooftop,"179C Albion St",,"Somerville, MA 02144",,179C,"Albion St",,,Somerville,MA,,"Middlesex County",02144,US,,"Office of Geographic Information (MassGIS), Commonwealth of Massachusetts, MassIT",gcod_usnzejbfcn5cnpvh45x5ynkpxml42,building_centroid
"100 Albion Terrace, Somerville MA 02145","Albion Terrace",start,42.391458,-71.1077,1,rooftop,"100 Albion Ter",,"Somerville, MA 02144",,100,"Albion Ter",,,Somerville,MA,,"Middlesex County",02144,US,,"Office of Geographic Information (MassGIS), Commonwealth of Massachusetts, MassIT",gcod_usnl2umwkbsmd27flrjqznp3ex4w6,building_centroid
"104 Albion Terrace, Somerville MA 02145","Albion Terrace",end,42.391543,-71.10789,1,rooftop,"104 Albion Ter",,"Somerville, MA 02144",,104,"Albion Ter",,,Somerville,MA,,"Middlesex County",02144,US,,"Office of Geographic Information (MassGIS), Commonwealth of Massachusetts, MassIT",gcod_usnl2umwkbsmd27flhvr2n8jk7b8c,building_centroid
"12 Alpine Street, Somerville MA 02144","Alpine Street",start,42.393693,-71.110629,1,rooftop,"12 Alpine St",,"Somerville, MA 02144",,12,"Alpine St",,,Somerville,MA,,"Middlesex County",02144,US,,"Office of Geographic Information (MassGIS), Commonwealth of Massachusetts, MassIT",gcod_usns6bp3eecanku8kfmtzbda7vd95,building_centroid
"102 Alpine Street, Somerville MA 02144","Alpine Street",end,42.392251,-71.106749,1,rooftop,"102 Alpine St",,"Somerville, MA 02144",,102,"Alpine St",,,Somerville,MA,,"Middlesex County",02144,US,,"Office of Geographic Information (MassGIS), Commonwealth of Massachusetts, MassIT",gcod_usns6bp3eecanku8jzlex65tn642h,building_centroid
"2 Appleton Street, Somerville MA 02144","Appleton Street",start,42.396239,-71.115637,1,rooftop,"2 Appleton St",,"Somerville, MA 02144",,2,"Appleton St",,,Somerville,MA,,"Middlesex County",02144,US,,"Office of Geographic Information (MassGIS), Commonwealth of Massachusetts, MassIT",gcod_usnum36khuymtxp4bxeuz9xffatgb,building_centroid
"34 Appleton Street, Somerville MA 02144","Appleton Street",end,42.397147,-71.11706,1,range_interpolation,"34 Appleton St",,"Somerville, MA 02144",,34,"Appleton St",,,Somerville,MA,,"Middlesex County",02144,US,,"TIGER/Line® from the US Census Bureau",gcod_usnum36khuymtxp4vab3lh3mbcfn3,
"7 Bay State Avenue, Somerville MA 02144","Bay State Avenue",start,42.400375,-71.114788,1,rooftop,"7 Bay State Ave",,"Somerville, MA 02144",,7,"Bay State Ave",,,Somerville,MA,,"Middlesex County",02144,US,,"Office of Geographic Information (MassGIS), Commonwealth of Massachusetts, MassIT",gcod_usnwt3k5wxrshet3qu4mbbukujeqb,building_centroid
"69 Bay State Avenue, Somerville MA 02144","Bay State Avenue",end,42.398516,-71.116152,1,rooftop,"69 Bay State Ave",,"Somerville, MA 02144",,69,"Bay State Ave",,,Somerville,MA,,"Middlesex County",02144,US,,"Office of Geographic Information (MassGIS), Commonwealth of Massachusetts, MassIT",gcod_usnwt3k5wxrshet3zlazbys2r3hh3,building_centroid
"7 Bellevue Terrace, Somerville MA 02144","Bellevue Terrace",start,42.392728,-71.109314,1,rooftop,"7 Bellevue Ter",,"Somerville, MA 02144",,7,"Bellevue Ter",,,Somerville,MA,,"Middlesex County",02144,US,,"Office of Geographic Information (MassGIS), Commonwealth of Massachusetts, MassIT",gcod_usn5alejvrk8bnm8xcwtgppu3fpjb,building_centroid
"10 Bellevue Terrace, Somerville MA 02144","Bellevue Terrace",end,42.392819,-71.109578,1,rooftop,"10 Bellevue Ter",,"Somerville, MA 02144",,10,"Bellevue Ter",,,Somerville,MA,,"Middlesex County",02144,US,,"Office of Geographic Information (MassGIS), Commonwealth of Massachusetts, MassIT",gcod_usn5alejvrk8bnm8wsasufqtatx6b,building_centroid
"1 Boston Avenue, Somerville MA 02144","Boston Avenue",start,42.394851,-71.111016,0.91,nearest_rooftop_match,"5 Boston Ave",,"Somerville, MA 02144",,5,"Boston Ave",,,Somerville,MA,,"Middlesex County",02144,US,,"Office of Geographic Information (MassGIS), Commonwealth of Massachusetts, MassIT",gcod_usnnlkrc6t9faen32ezy2cwdb9cz3,building_centroid
"158 Boston Avenue, Somerville MA 02144","Boston Avenue",end,42.399248,-71.111415,1,rooftop,"158 Boston Ave",,"Somerville, MA 02144",,158,"Boston Ave",,,Somerville,MA,,"Middlesex County",02144,US,,"Office of Geographic Information (MassGIS), Commonwealth of Massachusetts, MassIT",gcod_usnnlkrc6t9faen3sah9wqz9hknv9,building_centroid
"87 Bristol Road, Somerville MA 02145","Bristol Road",start,42.400742,-71.113458,0.95,rooftop,"87 Bristol Rd",,"Medford, MA 02155",,87,"Bristol Rd",,,Medford,MA,,"Middlesex County",02155,US,,"Office of Geographic Information (MassGIS), Commonwealth of Massachusetts, MassIT",gcod_usn8ugrwjjqeyl5f6pefr4rnhlpm7,building_centroid
"108 Bristol Road, Somerville MA 02145","Bristol Road",end,42.400239,-71.112549,1,rooftop,"108 Bristol Rd",,"Somerville, MA 02144",,108,"Bristol Rd",,,Somerville,MA,,"Middlesex County",02144,US,,"Office of Geographic Information (MassGIS), Commonwealth of Massachusetts, MassIT",gcod_usnunxdul9grp6ncgq2yy3y97st2g,building_centroid
"585 Broadway, Somerville MA 02144",Broadway,start,42.398499,-71.108497,1,range_interpolation,"585 Broadway",,"Somerville, MA 02145",,585,Broadway,,,Somerville,MA,,"Middlesex County",02145,US,,"TIGER/Line® from the US Census Bureau",gcod_usn7nf8e4zglqcw7zgrjf4eybarxe,
"726 Broadway, Somerville MA 02144",Broadway,end,42.400063,-71.113289,1,rooftop,"726 Broadway",,"Somerville, MA 02144",,726,Broadway,,,Somerville,MA,,"Middlesex County",02144,US,,"Office of Geographic Information (MassGIS), Commonwealth of Massachusetts, MassIT",gcod_usnjew5xwd3bx596qf67ad8cf3tua,building_centroid
"107 Cedar Street, Somerville MA 02144","Cedar Street",start,42.392443,-71.11204,1,rooftop,"107 Cedar St",,"Somerville, MA 02144",,107,"Cedar St",,,Somerville,MA,,"Middlesex County",02144,US,,"Office of Geographic Information (MassGIS), Commonwealth of Massachusetts, MassIT",gcod_usnwqmw3dzstn7afld5agkmcv7ata,building_centroid
"298 Cedar Street, Somerville MA 02144","Cedar Street",end,42.397096,-71.108745,1,range_interpolation,"298 Cedar St",,"Somerville, MA 02145",,298,"Cedar St",,,Somerville,MA,,"Middlesex County",02145,US,,"TIGER/Line® from the US Census Bureau",gcod_usnm39km53eyflucvzrgr23upgmab,
"1 Clifton Street, Somerville MA 02144","Clifton Street",start,42.396975,-71.117426,1,rooftop,"1 Clifton St",,"Somerville, MA 02144",,1,"Clifton St",,,Somerville,MA,,"Middlesex County",02144,US,,"Office of Geographic Information (MassGIS), Commonwealth of Massachusetts, MassIT",gcod_usnlqh9b4cwzts72umht8g82v7w8f,building_centroid
"14 Clifton Street, Somerville MA 02144","Clifton Street",end,42.396448,-71.117345,1,rooftop,"14 Clifton St",,"Somerville, MA 02144",,14,"Clifton St",,,Somerville,MA,,"Middlesex County",02144,US,,"Office of Geographic Information (MassGIS), Commonwealth of Massachusetts, MassIT",gcod_usnlqh9b4cwzts724beysawnqn6m2,building_centroid
"2 Clyde Street, Somerville MA 02145","Clyde Street",start,42.395269,-71.110016,1,rooftop,"2 Clyde St",,"Somerville, MA 02145",,2,"Clyde St",,,Somerville,MA,,"Middlesex County",02145,US,,"Office of Geographic Information (MassGIS), Commonwealth of Massachusetts, MassIT",gcod_usnznny9wscdjm24nxjklq249d97g,building_centroid
"56 Clyde Street, Somerville MA 02145","Clyde Street",end,42.394236,-71.107666,1,rooftop,"56 Clyde St",,"Somerville, MA 02145",,56,"Clyde St",,,Somerville,MA,,"Middlesex County",02145,US,,"Office of Geographic Information (MassGIS), Commonwealth of Massachusetts, MassIT",gcod_usn94fwn75qcywva7pgfwgf2hpfe5,building_centroid
"1 College Avenue, Somerville MA 02144","College Avenue",start,42.396444,-71.121794,1,rooftop,"1 College Ave",,"Somerville, MA 02144",,1,"College Ave",,,Somerville,MA,,"Middlesex County",02144,US,,"Office of Geographic Information (MassGIS), Commonwealth of Massachusetts, MassIT",gcod_usny7hrvbreamp2aszej3pvbx5222,building_centroid
"143 College Avenue, Somerville MA 02144","College Avenue",end,42.401549,-71.116517,1,rooftop,"143 College Ave",,"Somerville, MA 02144",,143,"College Ave",,,Somerville,MA,,"Middlesex County",02144,US,,"Office of Geographic Information (MassGIS), Commonwealth of Massachusetts, MassIT",gcod_usny7hrvbreamp2anyndwvfggwq9a,building_centroid
"1 Elm Court, Somerville MA 02144","Elm Court",start,42.396831,-71.121122,1,rooftop,"1 Elm Ct",,"Somerville, MA 02144",,1,"Elm Ct",,,Somerville,MA,,"Middlesex County",02144,US,,"Office of Geographic Information (MassGIS), Commonwealth of Massachusetts, MassIT",gcod_usn5du9wa2sdlavdd3wf8wxq2bkba,building_centroid
"6 Elm Court, Somerville MA 02144","Elm Court",end,42.396736,-71.121372,1,rooftop,"6 Elm Ct",,"Somerville, MA 02144",,6,"Elm Ct",,,Somerville,MA,,"Middlesex County",02144,US,,"Office of Geographic Information (MassGIS), Commonwealth of Massachusetts, MassIT",gcod_usn5du9wa2sdlavd2q2bjrkutwkv2,building_centroid
"16 Ellington Road, Somerville MA 02144","Ellington Road",start,42.395451,-71.119509,1,range_interpolation,"16 Ellington Rd",,"Somerville, MA 02144",,16,"Ellington Rd",,,Somerville,MA,,"Middlesex County",02144,US,,"TIGER/Line® from the US Census Bureau",gcod_usnh88b7xp7mzrddaspejshe9h8ef,
"32 Ellington Road, Somerville MA 02144","Ellington Road",end,42.395698,-71.119666,1,rooftop,"32 Ellington Rd",,"Somerville, MA 02144",,32,"Ellington Rd",,,Somerville,MA,,"Middlesex County",02144,US,,"Office of Geographic Information (MassGIS), Commonwealth of Massachusetts, MassIT",gcod_usnh88b7xp7mzrddc6h36ne6xzklg,building_centroid
"4 Foskett Street, Somerville MA 02145","Foskett Street",start,42.396772,-71.115255,1,rooftop,"4 Foskett St",,"Somerville, MA 02144",,4,"Foskett St",,,Somerville,MA,,"Middlesex County",02144,US,,"Office of Geographic Information (MassGIS), Commonwealth of Massachusetts, MassIT",gcod_usnx9g6fj5km9wh9ej7tx2nszy872,building_centroid
"52 Foskett Street, Somerville MA 02145","Foskett Street",end,42.397565,-71.117159,1,rooftop,"52 Foskett St",,"Somerville, MA 02144",,52,"Foskett St",,,Somerville,MA,,"Middlesex County",02144,US,,"Office of Geographic Information (MassGIS), Commonwealth of Massachusetts, MassIT",gcod_usnx9g6fj5km9wh99wkstncwr7n34,building_centroid
"7 Francesca Avenue, Somerville MA 02144","Francesca Avenue",start,42.398765,-71.119508,1,rooftop,"7 Francesca Ave",,"Somerville, MA 02144",,7,"Francesca Ave",,,Somerville,MA,,"Middlesex County",02144,US,,"Office of Geographic Information (MassGIS), Commonwealth of Massachusetts, MassIT",gcod_usngsge969jrzga99xd7w2pg7vvyb,building_centroid
"58 Francesca Avenue, Somerville MA 02144","Francesca Avenue",end,42.398194,-71.117201,1,rooftop,"58 Francesca Ave",,"Somerville, MA 02144",,58,"Francesca Ave",,,Somerville,MA,,"Middlesex County",02144,US,,"Office of Geographic Information (MassGIS), Commonwealth of Massachusetts, MassIT",gcod_usngsge969jrzga9e48vdvh95v6z5,building_centroid
"45 Grove Street, Somerville MA 02144","Grove Street",start,42.396341,-71.11992,1,rooftop,"45 Grove St",,"Somerville, MA 02144",,45,"Grove St",,,Somerville,MA,,"Middlesex County",02144,US,,"Office of Geographic Information (MassGIS), Commonwealth of Massachusetts, MassIT",gcod_usnew7jlk4twtkf8k3qcmsdehpfgg,building_centroid
"65 Grove Street, Somerville MA 02144","Grove Street",end,42.396904,-71.119568,1,rooftop,"65 Grove St",,"Somerville, MA 02144",,65,"Grove St",,,Somerville,MA,,"Middlesex County",02144,US,,"Office of Geographic Information (MassGIS), Commonwealth of Massachusetts, MassIT",gcod_usnew7jlk4twtkf8lh3ns5sdzqgc2,building_centroid
"5 Hall Avenue, Somerville MA 02144","Hall Avenue",start,42.398357,-71.12056,1,rooftop,"5 Hall Ave",,"Somerville, MA 02144",,5,"Hall Ave",,,Somerville,MA,,"Middlesex County",02144,US,,"Office of Geographic Information (MassGIS), Commonwealth of Massachusetts, MassIT",gcod_usn3v3lu7qjqtn8hnz783bb6zmsxa,building_centroid
"73 Hall Avenue, Somerville MA 02144","Hall Avenue",end,42.397366,-71.117755,1,rooftop,"73 Hall Ave",,"Somerville, MA 02144",,73,"Hall Ave",,,Somerville,MA,,"Middlesex County",02144,US,,"Office of Geographic Information (MassGIS), Commonwealth of Massachusetts, MassIT",gcod_usn3v3lu7qjqtn8h5wfkpjrprxck6,building_centroid
"219 Highland Avenue, Somerville MA 02144","Highland Avenue",start,42.390438,-71.107967,1,rooftop,"219 Highland Ave",,"Somerville, MA 02143",,219,"Highland Ave",,,Somerville,MA,,"Middlesex County",02143,US,,"Office of Geographic Information (MassGIS), Commonwealth of Massachusetts, MassIT",gcod_usnv73yttdzbk39dlpdxgtwybrtw2,building_centroid
"407 Highland Avenue, Somerville MA 02144","Highland Avenue",end,42.396263,-71.121089,1,rooftop,"407 Highland Ave",,"Somerville, MA 02144",,407,"Highland Ave",,,Somerville,MA,,"Middlesex County",02144,US,,"Office of Geographic Information (MassGIS), Commonwealth of Massachusetts, MassIT",gcod_usnv73yttdzbk39d2evk6s3ar39db,building_centroid
"2 Highland Road, Somerville MA 02144","Highland Road",start,42.394982,-71.113835,1,rooftop,"2 Highland Rd",,"Somerville, MA 02144",,2,"Highland Rd",,,Somerville,MA,,"Middlesex County",02144,US,,"Office of Geographic Information (MassGIS), Commonwealth of Massachusetts, MassIT",gcod_usnth2zuc7g86csfuah3a4pu66zy4,building_centroid
"140 Highland Road, Somerville MA 02144","Highland Road",end,42.398894,-71.111242,1,rooftop,"140 Highland Rd",,"Somerville, MA 02144",,140,"Highland Rd",,,Somerville,MA,,"Middlesex County",02144,US,,"Office of Geographic Information (MassGIS), Commonwealth of Massachusetts, MassIT",gcod_usnth2zuc7g86csfaygd8db95sej2,building_centroid
"9 Josephine Avenue, Somerville MA 02144","Josephine Avenue",start,42.395747,-71.114571,1,rooftop,"9 Josephine Ave",,"Somerville, MA 02144",,9,"Josephine Ave",,,Somerville,MA,,"Middlesex County",02144,US,,"Office of Geographic Information (MassGIS), Commonwealth of Massachusetts, MassIT",gcod_usnacgkbpclzu4jalqyuycjphmj44,building_centroid
"134 Josephine Avenue, Somerville MA 02144","Josephine Avenue",end,42.399744,-71.112289,1,rooftop,"134 Josephine Ave",,"Somerville, MA 02144",,134,"Josephine Ave",,,Somerville,MA,,"Middlesex County",02144,US,,"Office of Geographic Information (MassGIS), Commonwealth of Massachusetts, MassIT",gcod_usnacgkbpclzu4jaqlmrqnfxm8b82,building_centroid
"93 Kidder Avenue, Somerville MA 02144","Kidder Avenue",start,42.397915,-71.114433,1,range_interpolation,"93 Kidder Ave",,"Somerville, MA 02144",,93,"Kidder Ave",,,Somerville,MA,,"Middlesex County",02144,US,,"TIGER/Line® from the US Census Bureau",gcod_usnxntjmbpuryex79zzmqtmhjsku9,
"157 Kidder Avenue, Somerville MA 02144","Kidder Avenue",end,42.396161,-71.110582,1,rooftop,"157 Kidder Ave",,"Somerville, MA 02144",,157,"Kidder Ave",,,Somerville,MA,,"Middlesex County",02144,US,,"Office of Geographic Information (MassGIS), Commonwealth of Massachusetts, MassIT",gcod_usnxntjmbpuryex7jjjcybhh9pf5f,building_centroid
"6 Liberty Avenue, Somerville MA 02144","Liberty Avenue",start,42.400597,-71.115056,1,rooftop,"6 Liberty Ave",,"Somerville, MA 02144",,6,"Liberty Ave",,,Somerville,MA,,"Middlesex County",02144,US,,"Office of Geographic Information (MassGIS), Commonwealth of Massachusetts, MassIT",gcod_usn5v4vkhcwbs863fkhrf225k6ghb,building_centroid
"125 Liberty Avenue, Somerville MA 02144","Liberty Avenue",end,42.397579,-71.117196,1,range_interpolation,"125 Liberty Ave",,"Somerville, MA 02144",,125,"Liberty Ave",,,Somerville,MA,,"Middlesex County",02144,US,,"TIGER/Line® from the US Census Bureau",gcod_usn5v4vkhcwbs8635vju6p5zrnla5,
"121 Liberty Road, Somerville MA 02144","Liberty Road",start,42.397127,-71.117871,1,rooftop,"121 Liberty Rd",,"Somerville, MA 02144",,121,"Liberty Rd",,,Somerville,MA,,"Middlesex County",02144,US,,"Office of Geographic Information (MassGIS), Commonwealth of Massachusetts, MassIT",gcod_usn4m8az6hnk4b4btd2zuf9gd6e7h,building_centroid
"130 Liberty Road, Somerville MA 02144","Liberty Road",end,42.396752,-71.117811,1,rooftop,"130 Liberty Rd",,"Somerville, MA 02144",,130,"Liberty Rd",,,Somerville,MA,,"Middlesex County",02144,US,,"Office of Geographic Information (MassGIS), Commonwealth of Massachusetts, MassIT",gcod_usn4m8az6hnk4b4b49gylpz2xdc9a,building_centroid
"5 Lowden Avenue, Somerville MA 02144","Lowden Avenue",start,42.400189,-71.11392,1,rooftop,"5 Lowden Ave",,"Somerville, MA 02144",,5,"Lowden Ave",,,Somerville,MA,,"Middlesex County",02144,US,,"Office of Geographic Information (MassGIS), Commonwealth of Massachusetts, MassIT",gcod_usnvfzqbxkm8ckvau2pxhucecm4z8,building_centroid
"93 Lowden Avenue, Somerville MA 02144","Lowden Avenue",end,42.397399,-71.115864,1,rooftop,"93 Lowden Ave",,"Somerville, MA 02144",,93,"Lowden Ave",,,Somerville,MA,,"Middlesex County",02144,US,,"Office of Geographic Information (MassGIS), Commonwealth of Massachusetts, MassIT",gcod_usnvfzqbxkm8ckva6zv9t6h9mwe8g,building_centroid
"9 Mallet Street, Somerville MA 02144","Mallet Street",start,42.399305,-71.113812,1,rooftop,"9 Mallet St",,"Somerville, MA 02144",,9,"Mallet St",,,Somerville,MA,,"Middlesex County",02144,US,,"Office of Geographic Information (MassGIS), Commonwealth of Massachusetts, MassIT",gcod_usna8ydsa7f9nj7ebq28yuq2xnmk2,building_centroid
"9 Mallet Street, Somerville MA 02144","Mallet Street",end,42.399305,-71.113812,1,rooftop,"9 Mallet St",,"Somerville, MA 02144",,9,"Mallet St",,,Somerville,MA,,"Middlesex County",02144,US,,"Office of Geographic Information (MassGIS), Commonwealth of Massachusetts, MassIT",gcod_usna8ydsa7f9nj7ebq28yuq2xnmk2,building_centroid
"Maxwell's Green, Somerville MA 02144","Maxwell's Green",start,42.393231,-71.106296,1,street_center,"Maxwells Grn",,"Somerville, MA 02144",,,"Maxwells Grn",,,Somerville,MA,,"Middlesex County",02144,US,,"TIGER/Line® from the US Census Bureau",gcod_uss4k2j96bvhj7qe,
"Maxwell's Green, Somerville MA 02144","Maxwell's Green",end,42.393231,-71.106296,1,street_center,"Maxwells Grn",,"Somerville, MA 02144",,,"Maxwells Grn",,,Somerville,MA,,"Middlesex County",02144,US,,"TIGER/Line® from the US Census Bureau",gcod_uss4k2j96bvhj7qe,
"2 Morrison Avenue, Somerville MA 02144","Morrison Avenue",start,42.39433,-71.11106,1,rooftop,"2 Morrison Ave",,"Somerville, MA 02144",,2,"Morrison Ave",,,Somerville,MA,,"Middlesex County",02144,US,,"Office of Geographic Information (MassGIS), Commonwealth of Massachusetts, MassIT",gcod_usnal6aflubdfk3ccycrpjpk5hhjh,building_centroid
"232 Morrison Avenue, Somerville MA 02144","Morrison Avenue",end,42.397579,-71.120096,1,range_interpolation,"232 Morrison Ave",,"Somerville, MA 02144",,232,"Morrison Ave",,,Somerville,MA,,"Middlesex County",02144,US,,"TIGER/Line® from the US Census Bureau",gcod_usnal6aflubdfk3cvnbpvzu4tmgb4,
"5 Morrison Place, Somerville MA 02144","Morrison Place",start,42.397068,-71.118287,1,rooftop,"5 Morrison Pl",,"Somerville, MA 02144",,5,"Morrison Pl",,,Somerville,MA,,"Middlesex County",02144,US,,"Office of Geographic Information (MassGIS), Commonwealth of Massachusetts, MassIT",gcod_usn3jnvxdsfuap8h2kf9mt8ft327b,building_centroid
"8 Morrison Place, Somerville MA 02144","Morrison Place",end,42.397176,-71.118548,1,rooftop,"8 Morrison Pl",,"Somerville, MA 02144",,8,"Morrison Pl",,,Somerville,MA,,"Middlesex County",02144,US,,"Office of Geographic Information (MassGIS), Commonwealth of Massachusetts, MassIT",gcod_usn3jnvxdsfuap8hdh6nxgza38qrb,building_centroid
"9 Murdock Street, Somerville MA 02145","Murdock Street",start,42.396222,-71.109161,1,rooftop,"9 Murdock St",,"Somerville, MA 02145",,9,"Murdock St",,,Somerville,MA,,"Middlesex County",02145,US,,"Office of Geographic Information (MassGIS), Commonwealth of Massachusetts, MassIT",gcod_usnajnex8vftyc6247evpzxfajrp4,building_centroid
"65 Murdock Street, Somerville MA 02145","Murdock Street",end,42.394654,-71.108468,1,rooftop,"65 Murdock St",,"Somerville, MA 02145",,65,"Murdock St",,,Somerville,MA,,"Middlesex County",02145,US,,"Office of Geographic Information (MassGIS), Commonwealth of Massachusetts, MassIT",gcod_usnajnex8vftyc625xjzg4nn88bce,building_centroid
"4 Newman Place, Somerville MA 02145","Newman Place",start,42.395787,-71.109663,1,rooftop,"4 Newman Pl",,"Somerville, MA 02145",,4,"Newman Pl",,,Somerville,MA,,"Middlesex County",02145,US,,"Office of Geographic Information (MassGIS), Commonwealth of Massachusetts, MassIT",gcod_usn99ez4zu92euy8xffu3j98b4gl6,building_centroid
"8 Newman Place, Somerville MA 02145","Newman Place",end,42.395702,-71.109472,1,rooftop,"8 Newman Pl",,"Somerville, MA 02145",,8,"Newman Pl",,,Somerville,MA,,"Middlesex County",02145,US,,"Office of Geographic Information (MassGIS), Commonwealth of Massachusetts, MassIT",gcod_usn99ez4zu92euy8h4khsk3sjnqn3,building_centroid
"2 Pearson Avenue, Somerville MA 02144","Pearson Avenue",start,42.394875,-71.112552,0.98,range_interpolation,"2 Pearson Ave",,"Somerville, MA 02144",,2,"Pearson Ave",,,Somerville,MA,,"Middlesex County",02144,US,,"TIGER/Line® from the US Census Bureau",gcod_usn54qpgmcemh7w6suaj3ynzpgzc9,
"116 Pearson Avenue, Somerville MA 02144","Pearson Avenue",end,42.398218,-71.110742,1,rooftop,"116 Pearson Ave",,"Somerville, MA 02144",,116,"Pearson Ave",,,Somerville,MA,,"Middlesex County",02144,US,,"Office of Geographic Information (MassGIS), Commonwealth of Massachusetts, MassIT",gcod_usn54qpgmcemh7w6nz3qv7h95rva4,building_centroid
"1 Pearson Road, Somerville MA 02144","Pearson Road",start,42.400712,-71.113871,1,rooftop,"1 Pearson Rd",,"Somerville, MA 02144",,1,"Pearson Rd",,,Somerville,MA,,"Middlesex County",02144,US,,"Office of Geographic Information (MassGIS), Commonwealth of Massachusetts, MassIT",gcod_usncftlft3m5hky6mbkz3lu64t7kc,building_centroid
"39 Pearson Road, Somerville MA 02144","Pearson Road",end,42.401859,-71.114583,1,rooftop,"39 Pearson Rd",,"Somerville, MA 02144",,39,"Pearson Rd",,,Somerville,MA,,"Middlesex County",02144,US,,"Office of Geographic Information (MassGIS), Commonwealth of Massachusetts, MassIT",gcod_usncftlft3m5hky68vbeyjvfwl6k9,building_centroid
"1 Powder House Terrace, Somerville MA 02144","Powder House Terrace",start,42.39898,-71.117338,1,rooftop,"1 Powder House Ter",,"Somerville, MA 02144",,1,"Powder House Ter",,,Somerville,MA,,"Middlesex County",02144,US,,"Office of Geographic Information (MassGIS), Commonwealth of Massachusetts, MassIT",gcod_usn8rtgg3ln9xrfew3jyvz5neqbhb,building_centroid
"39 Powder House Terrace, Somerville MA 02144","Powder House Terrace",end,42.399534,-71.116279,1,rooftop,"39 Powder House Ter",,"Somerville, MA 02144",,39,"Powder House Ter",,,Somerville,MA,,"Middlesex County",02144,US,,"Office of Geographic Information (MassGIS), Commonwealth of Massachusetts, MassIT",gcod_usn8rtgg3ln9xrfe9v6msr6dbd6a5,building_centroid
"5 Prichard Avenue, Somerville MA 02144","Prichard Avenue",start,42.395027,-71.111646,1,rooftop,"5 Prichard Ave",,"Somerville, MA 02144",,5,"Prichard Ave",,,Somerville,MA,,"Middlesex County",02144,US,,"Office of Geographic Information (MassGIS), Commonwealth of Massachusetts, MassIT",gcod_usnu9h6x4ul6pq5g2p7pu3rgx4jrf,building_centroid
"100 Prichard Avenue, Somerville MA 02144","Prichard Avenue",end,42.397651,-71.110294,0.94,nearest_rooftop_match,"98 Prichard Ave",,"Somerville, MA 02144",,98,"Prichard Ave",,,Somerville,MA,,"Middlesex County",02144,US,,"Office of Geographic Information (MassGIS), Commonwealth of Massachusetts, MassIT",gcod_usnu9h6x4ul6pq5gjcudkh8qz6af4,building_centroid
"4 Princeton Street, Somerville MA 02145","Princeton Street",start,42.392857,-71.10847,1,range_interpolation,"4 Princeton St",,"Somerville, MA 02144",,4,"Princeton St",,,Somerville,MA,,"Middlesex County",02144,US,,"TIGER/Line® from the US Census Bureau",gcod_usnzv8e3myx4pzl638rsawsdcdbd2,
"57 Princeton Street, Somerville MA 02145","Princeton Street",end,42.392921,-71.107325,1,range_interpolation,"57 Princeton St",,"Somerville, MA 02144",,57,"Princeton St",,,Somerville,MA,,"Middlesex County",02144,US,,"TIGER/Line® from the US Census Bureau",gcod_usnzv8e3myx4pzl6dvma492dmv5c3,
"2 Rogers Avenue, Somerville MA 02144","Rogers Avenue",start,42.395517,-71.114407,1,rooftop,"2 Rogers Ave",,"Somerville, MA 02144",,2,"Rogers Ave",,,Somerville,MA,,"Middlesex County",02144,US,,"Office of Geographic Information (MassGIS), Commonwealth of Massachusetts, MassIT",gcod_usnf8zu6wjknw53cn4mfs5x36pkw9,building_centroid
"130 Rogers Avenue, Somerville MA 02144","Rogers Avenue",end,42.39935,-71.111782,1,rooftop,"130 Rogers Ave",,"Somerville, MA 02144",,130,"Rogers Ave",,,Somerville,MA,,"Middlesex County",02144,US,,"Office of Geographic Information (MassGIS), Commonwealth of Massachusetts, MassIT",gcod_usnf8zu6wjknw53ck7dfcgmesjvt2,building_centroid
"10 Warwick Street, Somerville MA 02145","Warwick Street",start,42.394533,-71.110144,1,rooftop,"10 Warwick St",,"Somerville, MA 02145",,10,"Warwick St",,,Somerville,MA,,"Middlesex County",02145,US,,"Office of Geographic Information (MassGIS), Commonwealth of Massachusetts, MassIT",gcod_usny6lz66z4rssn9rrm62r29wkvud,building_centroid
"94 Warwick Street, Somerville MA 02145","Warwick Street",end,42.393466,-71.108632,1,range_interpolation,"94 Warwick St",,"Somerville, MA 02145",,94,"Warwick St",,,Somerville,MA,,"Middlesex County",02145,US,,"TIGER/Line® from the US Census Bureau",gcod_usny6lz66z4rssn9m52qrf6c4ms2d,
"130 Willow Avenue, Somerville MA 02144","Willow Avenue",start,42.39545,-71.116194,1,rooftop,"130 Willow Ave",,"Somerville, MA 02144",,130,"Willow Ave",,,Somerville,MA,,"Middlesex County",02144,US,,"Office of Geographic Information (MassGIS), Commonwealth of Massachusetts, MassIT",gcod_usnm9hv77dgkaxc4xslhfhaxkhmw6,building_centroid
"275 Willow Avenue, Somerville MA 02144","Willow Avenue",end,42.399705,-71.112768,1,rooftop,"275 Willow Ave",,"Somerville, MA 02144",,275,"Willow Ave",,,Somerville,MA,,"Middlesex County",02144,US,,"Office of Geographic Information (MassGIS), Commonwealth of Massachusetts, MassIT",gcod_usnm9hv77dgkaxc4yhwbcza36cl78,building_centroid
"5 Wilson Avenue, Somerville MA 02144","Wilson Avenue",start,42.398399,-71.108965,1,rooftop,"5 Wilson Ave",,"Somerville, MA 02145",,5,"Wilson Ave",,,Somerville,MA,,"Middlesex County",02145,US,,"Office of Geographic Information (MassGIS), Commonwealth of Massachusetts, MassIT",gcod_usn7y86dt4cdgby4j3mgsrsveddue,building_centroid
"20 Wilson Avenue, Somerville MA 02144","Wilson Avenue",end,42.397898,-71.10894,1,rooftop,"20 Wilson Ave",,"Somerville, MA 02145",,20,"Wilson Ave",,,Somerville,MA,,"Middlesex County",02145,US,,"Office of Geographic Information (MassGIS), Commonwealth of Massachusetts, MassIT",gcod_usn7y86dt4cdgby4ck2z9sgw687x8,building_centroid
"11 Winslow Avenue, Somerville MA 02144","Winslow Avenue",start,42.397053,-71.121142,1,rooftop,"11 Winslow Ave",,"Somerville, MA 02144",,11,"Winslow Ave",,,Somerville,MA,,"Middlesex County",02144,US,,"Office of Geographic Information (MassGIS), Commonwealth of Massachusetts, MassIT",gcod_usnj4yalstsjq856xrecpnk7dcdwh,building_centroid
"99 Winslow Avenue, Somerville MA 02144","Winslow Avenue",end,42.395953,-71.118226,0.94,nearest_rooftop_match,"97 Winslow Ave",,"Somerville, MA 02144",,97,"Winslow Ave",,,Somerville,MA,,"Middlesex County",02144,US,,"Office of Geographic Information (MassGIS), Commonwealth of Massachusetts, MassIT",gcod_usnj4yalstsjq8565chfkyraynwec,building_centroid
